name,description,lon,lat
HYATT-GUEST,BSSID: <b>0c:68:03:cb:f1:c0</b><br/>Capabilities: <b>[ESS]</b><br/>Frequency: <b>2412</b><br/>Timestamp: <b>1393096362000</b><br/>Date: <b>2014-02-22 14:12:42</b>,-82.39753422365077,34.85220644163455
BSHSIGuest,BSSID: <b>54:78:1a:d0:ca:f3</b><br/>Capabilities: <b>[ESS]</b><br/>Frequency: <b>2412</b><br/>Timestamp: <b>0</b><br/>Date: <b>1969-12-31 19:00:00</b>,-82.3992539403883,34.849264127949176
Sticky Hotspot,BSSID: <b>00:18:0a:21:43:93</b><br/>Capabilities: <b>[ESS]</b><br/>Frequency: <b>2412</b><br/>Timestamp: <b>1393096126000</b><br/>Date: <b>2014-02-22 14:08:46</b>,-82.39866795272509,34.850856758978765
belkin.4f2.guests,BSSID: <b>0a:86:3b:21:44:f3</b><br/>Capabilities: <b>[WPS][ESS]</b><br/>Frequency: <b>2437</b><br/>Timestamp: <b>1393096622999</b><br/>Date: <b>2014-02-22 14:17:02</b>,-82.39790559910844,34.85249117164745
PB-Guest,BSSID: <b>1c:e6:c7:05:17:e1</b><br/>Capabilities: <b>[ESS]</b><br/>Frequency: <b>2437</b><br/>Timestamp: <b>1393096445999</b><br/>Date: <b>2014-02-22 14:14:05</b>,-82.39656013629177,34.851852196511075
On The Roof,BSSID: <b>00:17:c5:ce:a8:a4</b><br/>Capabilities: <b>[ESS]</b><br/>Frequency: <b>2427</b><br/>Timestamp: <b>1393097019999</b><br/>Date: <b>2014-02-22 14:23:39</b>,-82.39828422341054,34.851971633140884
GCI-GUEST,BSSID: <b>6c:f3:7f:1a:77:63</b><br/>Capabilities: <b>[ESS]</b><br/>Frequency: <b>2462</b><br/>Timestamp: <b>1393097801999</b><br/>Date: <b>2014-02-22 14:36:41</b>,-82.40087821896473,34.84730504367786
Westin Poinsett Greenville,BSSID: <b>a4:56:30:46:5c:70</b><br/>Capabilities: <b>[ESS]</b><br/>Frequency: <b>2437</b><br/>Timestamp: <b>1393098945999</b><br/>Date: <b>2014-02-22 14:55:45</b>,-82.39950543009931,34.849786679547556
HP-Print-65-Officejet Pro 8600,BSSID: <b>00:9c:02:d2:47:65</b><br/>Capabilities: <b>[ESS]</b><br/>Frequency: <b>2447</b><br/>Timestamp: <b>1393096947000</b><br/>Date: <b>2014-02-22 14:22:27</b>,-82.39789045107813,34.85297819979183
,BSSID: <b>00:18:0a:30:23:f0</b><br/>Capabilities: <b>[ESS]</b><br/>Frequency: <b>2462</b><br/>Timestamp: <b>1393098775000</b><br/>Date: <b>2014-02-22 14:52:55</b>,-82.39938348062212,34.84939539288719
HP-Print-1e-CecilsHP,BSSID: <b>e0:06:e6:31:a5:1e</b><br/>Capabilities: <b>[ESS]</b><br/>Frequency: <b>2462</b><br/>Timestamp: <b>1393097600000</b><br/>Date: <b>2014-02-22 14:33:20</b>,-82.39974592868045,34.84917368437087
attwifi,BSSID: <b>44:ad:d9:ba:d6:f0</b><br/>Capabilities: <b>[ESS]</b><br/>Frequency: <b>2432</b><br/>Timestamp: <b>1393097421000</b><br/>Date: <b>2014-02-22 14:30:21</b>,-82.40007091125817,34.850033211652885
wcsrguest,BSSID: <b>00:24:97:89:1e:c1</b><br/>Capabilities: <b>[ESS]</b><br/>Frequency: <b>2437</b><br/>Timestamp: <b>1393097921000</b><br/>Date: <b>2014-02-22 14:38:41</b>,-82.40133826438242,34.846120027417705
SchwabOne,BSSID: <b>24:de:c6:68:95:10</b><br/>Capabilities: <b>[ESS]</b><br/>Frequency: <b>2462</b><br/>Timestamp: <b>1393099077000</b><br/>Date: <b>2014-02-22 14:57:57</b>,-82.39862312671168,34.850308017323734
Roost,BSSID: <b>00:17:9a:32:22:6e</b><br/>Capabilities: <b>[ESS]</b><br/>Frequency: <b>2462</b><br/>Timestamp: <b>1393096690999</b><br/>Date: <b>2014-02-22 14:18:10</b>,-82.39790630280183,34.85306923547729
,BSSID: <b>0c:27:24:51:cb:10</b><br/>Capabilities: <b>[ESS]</b><br/>Frequency: <b>2412</b><br/>Timestamp: <b>1393097081999</b><br/>Date: <b>2014-02-22 14:24:41</b>,-82.3986545727066,34.85148229386063
HYATT-GUEST,BSSID: <b>0c:68:03:dd:25:20</b><br/>Capabilities: <b>[ESS]</b><br/>Frequency: <b>2437</b><br/>Timestamp: <b>1393096667999</b><br/>Date: <b>2014-02-22 14:17:47</b>,-82.39796665947506,34.85282684970111
QuietMagnolia-guest,BSSID: <b>ce:d7:19:06:96:f5</b><br/>Capabilities: <b>[ESS]</b><br/>Frequency: <b>2427</b><br/>Timestamp: <b>1393098013000</b><br/>Date: <b>2014-02-22 14:40:13</b>,-82.40202147824313,34.84549085645484
Westin Poinsett Greenville,BSSID: <b>a4:56:30:15:bb:00</b><br/>Capabilities: <b>[ESS]</b><br/>Frequency: <b>2462</b><br/>Timestamp: <b>1393097378000</b><br/>Date: <b>2014-02-22 14:29:38</b>,-82.39929774750728,34.849982592918266
City Tavern,BSSID: <b>00:1b:2f:0c:a2:70</b><br/>Capabilities: <b>[ESS]</b><br/>Frequency: <b>2462</b><br/>Timestamp: <b>1393096966000</b><br/>Date: <b>2014-02-22 14:22:46</b>,-82.39813728784529,34.852444049355434
COR3-Design-guest,BSSID: <b>c6:c1:c0:62:0c:4a</b><br/>Capabilities: <b>[ESS]</b><br/>Frequency: <b>2432</b><br/>Timestamp: <b>1393098015000</b><br/>Date: <b>2014-02-22 14:40:15</b>,-82.40203315755019,34.84548361571269
HYATT-GUEST,BSSID: <b>44:ad:d9:71:c5:60</b><br/>Capabilities: <b>[ESS]</b><br/>Frequency: <b>2437</b><br/>Timestamp: <b>1393096676999</b><br/>Date: <b>2014-02-22 14:17:56</b>,-82.39792996252075,34.852921477425404
Courtyard_Lobby,BSSID: <b>50:17:ff:9e:5e:41</b><br/>Capabilities: <b>[ESS]</b><br/>Frequency: <b>2412</b><br/>Timestamp: <b>1393097675999</b><br/>Date: <b>2014-02-22 14:34:35</b>,-82.40017121022441,34.8485149521338
Courtyard_Guest,BSSID: <b>50:17:ff:9e:5e:40</b><br/>Capabilities: <b>[ESS]</b><br/>Frequency: <b>2412</b><br/>Timestamp: <b>1393097681999</b><br/>Date: <b>2014-02-22 14:34:41</b>,-82.40019487500238,34.848485305449415
HYATT-GUEST,BSSID: <b>ec:e1:a9:8e:07:c0</b><br/>Capabilities: <b>[ESS]</b><br/>Frequency: <b>2462</b><br/>Timestamp: <b>1393096523999</b><br/>Date: <b>2014-02-22 14:15:23</b>,-82.39662214298646,34.85218038918766
ANTHRO_GUEST_WIFI,BSSID: <b>b4:c7:99:09:df:c2</b><br/>Capabilities: <b>[ESS]</b><br/>Frequency: <b>2437</b><br/>Timestamp: <b>1393094534000</b><br/>Date: <b>2014-02-22 13:42:14</b>,-82.39831627851423,34.85155932395494
On The Roof,BSSID: <b>00:17:c5:bd:d9:f0</b><br/>Capabilities: <b>[ESS]</b><br/>Frequency: <b>2442</b><br/>Timestamp: <b>1393094545000</b><br/>Date: <b>2014-02-22 13:42:25</b>,-82.3985110168358,34.851533507492036
Courtyard_Guest,BSSID: <b>50:17:ff:9e:5e:10</b><br/>Capabilities: <b>[ESS]</b><br/>Frequency: <b>2462</b><br/>Timestamp: <b>1393097705999</b><br/>Date: <b>2014-02-22 14:35:05</b>,-82.4003127284243,34.84837677490913
FlowMotion-guest,BSSID: <b>58:6d:8f:b9:e0:d2</b><br/>Capabilities: <b>[ESS]</b><br/>Frequency: <b>2412</b><br/>Timestamp: <b>1393096118999</b><br/>Date: <b>2014-02-22 14:08:38</b>,-82.39856376146062,34.85075273043208
HP-Print-94-Officejet 6700,BSSID: <b>d8:9d:67:3b:be:94</b><br/>Capabilities: <b>[ESS]</b><br/>Frequency: <b>2412</b><br/>Timestamp: <b>1393098663000</b><br/>Date: <b>2014-02-22 14:51:03</b>,-82.39993700324219,34.84830970665826
City Of Greenville Guest,BSSID: <b>06:27:22:59:4e:03</b><br/>Capabilities: <b>[ESS]</b><br/>Frequency: <b>2437</b><br/>Timestamp: <b>1393098700000</b><br/>Date: <b>2014-02-22 14:51:40</b>,-82.39978861948595,34.848599622991635
RedWolf-guest,BSSID: <b>4e:f8:b3:8d:0a:f4</b><br/>Capabilities: <b>[ESS]</b><br/>Frequency: <b>2457</b><br/>Timestamp: <b>1393097421000</b><br/>Date: <b>2014-02-22 14:30:21</b>,-82.40007091125817,34.850033211652885
HYATT-GUEST,BSSID: <b>0c:68:03:cb:ea:d0</b><br/>Capabilities: <b>[ESS]</b><br/>Frequency: <b>2462</b><br/>Timestamp: <b>1393096706999</b><br/>Date: <b>2014-02-22 14:18:26</b>,-82.39782779416892,34.85310816919041
C4,BSSID: <b>64:a0:e7:da:95:53</b><br/>Capabilities: <b>[ESS]</b><br/>Frequency: <b>2462</b><br/>Timestamp: <b>1393096807000</b><br/>Date: <b>2014-02-22 14:20:07</b>,-82.3977395029403,34.85396556794715
SIP_Guest,BSSID: <b>0a:27:22:fb:7a:33</b><br/>Capabilities: <b>[ESS]</b><br/>Frequency: <b>2437</b><br/>Timestamp: <b>1393098964999</b><br/>Date: <b>2014-02-22 14:56:04</b>,-82.39948326337026,34.84992268081948
Sobys on the Side,BSSID: <b>06:27:22:53:66:6a</b><br/>Capabilities: <b>[ESS]</b><br/>Frequency: <b>2462</b><br/>Timestamp: <b>1393098545000</b><br/>Date: <b>2014-02-22 14:49:05</b>,-82.40027016267445,34.84747085563795
REGUSNETWIFI,BSSID: <b>00:1a:e3:75:c2:a0</b><br/>Capabilities: <b>[ESS]</b><br/>Frequency: <b>2437</b><br/>Timestamp: <b>1393096702999</b><br/>Date: <b>2014-02-22 14:18:22</b>,-82.39788637777362,34.853086827377155
Westin Poinsett Greenville,BSSID: <b>a4:56:30:46:82:d0</b><br/>Capabilities: <b>[ESS]</b><br/>Frequency: <b>2462</b><br/>Timestamp: <b>1393098793999</b><br/>Date: <b>2014-02-22 14:53:13</b>,-82.3993531657373,34.84943110113119
HYATT-GUEST,BSSID: <b>34:a8:4e:43:44:40</b><br/>Capabilities: <b>[ESS]</b><br/>Frequency: <b>2437</b><br/>Timestamp: <b>1393096696999</b><br/>Date: <b>2014-02-22 14:18:16</b>,-82.39788650660313,34.85308683490529
Passerelle Public,BSSID: <b>06:27:22:e3:21:60</b><br/>Capabilities: <b>[ESS]</b><br/>Frequency: <b>2437</b><br/>Timestamp: <b>1393098189999</b><br/>Date: <b>2014-02-22 14:43:09</b>,-82.40237662909045,34.84471182306065
City Of Greenville Guest,BSSID: <b>c2:9f:db:87:a2:81</b><br/>Capabilities: <b>[ESS]</b><br/>Frequency: <b>2462</b><br/>Timestamp: <b>1393098557000</b><br/>Date: <b>2014-02-22 14:49:17</b>,-82.40023992903927,34.84750304019587
REGUSNETWIFI,BSSID: <b>00:1c:0f:4c:be:e0</b><br/>Capabilities: <b>[ESS]</b><br/>Frequency: <b>2412</b><br/>Timestamp: <b>1393096691999</b><br/>Date: <b>2014-02-22 14:18:11</b>,-82.39790646173634,34.85308025586662
SchwabOne,BSSID: <b>24:de:c6:68:93:e0</b><br/>Capabilities: <b>[ESS]</b><br/>Frequency: <b>2412</b><br/>Timestamp: <b>1393096111320</b><br/>Date: <b>2014-02-22 14:08:31</b>,-82.39809709631218,34.8502629586796
public,BSSID: <b>0a:27:22:0b:be:b7</b><br/>Capabilities: <b>[ESS]</b><br/>Frequency: <b>2437</b><br/>Timestamp: <b>1393096392000</b><br/>Date: <b>2014-02-22 14:13:12</b>,-82.39713222946858,34.85211329916593
Mollica,BSSID: <b>00:12:17:0a:12:3d</b><br/>Capabilities: <b>[ESS]</b><br/>Frequency: <b>2437</b><br/>Timestamp: <b>1393096980000</b><br/>Date: <b>2014-02-22 14:23:00</b>,-82.39816685298675,34.852341310196046
HP-Print-B1-Photosmart 6520,BSSID: <b>38:ea:a7:3b:54:b1</b><br/>Capabilities: <b>[ESS]</b><br/>Frequency: <b>2437</b><br/>Timestamp: <b>1393096941000</b><br/>Date: <b>2014-02-22 14:22:21</b>,-82.39785018309111,34.853057051464425
Pomegranate_Guest,BSSID: <b>00:22:75:a1:d8:69</b><br/>Capabilities: <b>[ESS]</b><br/>Frequency: <b>2437</b><br/>Timestamp: <b>1393098066000</b><br/>Date: <b>2014-02-22 14:41:06</b>,-82.40229630279089,34.84507127787195
AMX,BSSID: <b>00:c0:a8:ab:3b:c4</b><br/>Capabilities: <b>[ESS]</b><br/>Frequency: <b>2462</b><br/>Timestamp: <b>1393096368000</b><br/>Date: <b>2014-02-22 14:12:48</b>,-82.39736994472149,34.85217865464794
HP-Print-a8-LaserJet 200,BSSID: <b>84:4b:f5:08:30:a8</b><br/>Capabilities: <b>[ESS]</b><br/>Frequency: <b>2412</b><br/>Timestamp: <b>1393098590000</b><br/>Date: <b>2014-02-22 14:49:50</b>,-82.40005426635942,34.84789627650265
TRIO,BSSID: <b>00:1e:2a:04:73:c2</b><br/>Capabilities: <b>[ESS]</b><br/>Frequency: <b>2437</b><br/>Timestamp: <b>1393096204000</b><br/>Date: <b>2014-02-22 14:10:04</b>,-82.39904636829807,34.85105669434842
SIP_Guest,BSSID: <b>0a:27:22:fb:7a:64</b><br/>Capabilities: <b>[ESS]</b><br/>Frequency: <b>2412</b><br/>Timestamp: <b>1393094545000</b><br/>Date: <b>2014-02-22 13:42:25</b>,-82.3985110168358,34.851533507492036
HP-Print-62-ENVY 120 series,BSSID: <b>28:92:4a:c5:be:62</b><br/>Capabilities: <b>[ESS]</b><br/>Frequency: <b>2437</b><br/>Timestamp: <b>1393094537000</b><br/>Date: <b>2014-02-22 13:42:17</b>,-82.39836672469421,34.85157200705482
Google Starbucks,BSSID: <b>9c:1c:12:0a:33:f0</b><br/>Capabilities: <b>[ESS]</b><br/>Frequency: <b>2462</b><br/>Timestamp: <b>1393097978000</b><br/>Date: <b>2014-02-22 14:39:38</b>,-82.40179723706586,34.84569568259096
Landmark_public,BSSID: <b>dc:9f:db:1c:61:d2</b><br/>Capabilities: <b>[ESS]</b><br/>Frequency: <b>2437</b><br/>Timestamp: <b>1393096774000</b><br/>Date: <b>2014-02-22 14:19:34</b>,-82.39764654305091,34.85391989392907
HP-Print-fc-LaserJet 100,BSSID: <b>08:ed:b9:31:a3:fc</b><br/>Capabilities: <b>[ESS]</b><br/>Frequency: <b>2437</b><br/>Timestamp: <b>1393097537000</b><br/>Date: <b>2014-02-22 14:32:17</b>,-82.39972945096152,34.84949777786902
NETGEAR,BSSID: <b>c0:3f:0e:56:1c:be</b><br/>Capabilities: <b>[WPS][ESS]</b><br/>Frequency: <b>2437</b><br/>Timestamp: <b>1393097275999</b><br/>Date: <b>2014-02-22 14:27:55</b>,-82.39906530439838,34.85085875194808
veranda on main,BSSID: <b>04:4f:aa:2e:ae:f8</b><br/>Capabilities: <b>[ESS]</b><br/>Frequency: <b>2437</b><br/>Timestamp: <b>1393098660000</b><br/>Date: <b>2014-02-22 14:51:00</b>,-82.39994343500118,34.84829066724189
Westin Poinsett Greenville,BSSID: <b>a4:56:30:46:67:40</b><br/>Capabilities: <b>[ESS]</b><br/>Frequency: <b>2437</b><br/>Timestamp: <b>1393098671000</b><br/>Date: <b>2014-02-22 14:51:11</b>,-82.39988344144955,34.84847907933913
HYATT-GUEST,BSSID: <b>0c:68:03:dc:ef:50</b><br/>Capabilities: <b>[ESS]</b><br/>Frequency: <b>2412</b><br/>Timestamp: <b>1393096353000</b><br/>Date: <b>2014-02-22 14:12:33</b>,-82.39753422365077,34.85220644163455
HYATT-GUEST,BSSID: <b>44:ad:d9:5f:5c:40</b><br/>Capabilities: <b>[ESS]</b><br/>Frequency: <b>2437</b><br/>Timestamp: <b>1393096563999</b><br/>Date: <b>2014-02-22 14:16:03</b>,-82.39721157109707,34.85223994299068
HYATT-MEETING,BSSID: <b>0c:68:03:dd:7b:f2</b><br/>Capabilities: <b>[ESS]</b><br/>Frequency: <b>2412</b><br/>Timestamp: <b>1393096506999</b><br/>Date: <b>2014-02-22 14:15:06</b>,-82.39641672269131,34.85202713913616
HYATT-GUEST,BSSID: <b>0c:68:03:dd:7b:f0</b><br/>Capabilities: <b>[ESS]</b><br/>Frequency: <b>2412</b><br/>Timestamp: <b>1393096690999</b><br/>Date: <b>2014-02-22 14:18:10</b>,-82.39790630280183,34.85306923547729
,BSSID: <b>18:33:9d:5f:95:12</b><br/>Capabilities: <b>[ESS]</b><br/>Frequency: <b>2412</b><br/>Timestamp: <b>1393097187999</b><br/>Date: <b>2014-02-22 14:26:27</b>,-82.3998913873632,34.85114811289233
Courtyard_Conf,BSSID: <b>c0:25:5c:68:7b:f0</b><br/>Capabilities: <b>[ESS]</b><br/>Frequency: <b>2437</b><br/>Timestamp: <b>1393097678999</b><br/>Date: <b>2014-02-22 14:34:38</b>,-82.40019487498878,34.84848530546568
Courtyard_Guest,BSSID: <b>c0:25:5c:68:7b:f1</b><br/>Capabilities: <b>[ESS]</b><br/>Frequency: <b>2437</b><br/>Timestamp: <b>1393097678999</b><br/>Date: <b>2014-02-22 14:34:38</b>,-82.40019487498878,34.84848530546568
The Lazy Goat,BSSID: <b>00:27:22:8a:10:7d</b><br/>Capabilities: <b>[ESS]</b><br/>Frequency: <b>2447</b><br/>Timestamp: <b>1393097912000</b><br/>Date: <b>2014-02-22 14:38:32</b>,-82.4012283272122,34.846209888031524
linksys,BSSID: <b>00:1c:10:66:b5:cd</b><br/>Capabilities: <b>[ESS]</b><br/>Frequency: <b>2437</b><br/>Timestamp: <b>1393098113000</b><br/>Date: <b>2014-02-22 14:41:53</b>,-82.40280864115445,34.844745175579874
,BSSID: <b>00:24:a5:c6:9a:47</b><br/>Capabilities: <b>[ESS]</b><br/>Frequency: <b>2462</b><br/>Timestamp: <b>1393096251000</b><br/>Date: <b>2014-02-22 14:10:51</b>,-82.39851905421273,34.851830588773076
HYATT-GUEST,BSSID: <b>0c:68:03:dd:7f:80</b><br/>Capabilities: <b>[ESS]</b><br/>Frequency: <b>2437</b><br/>Timestamp: <b>1393096850000</b><br/>Date: <b>2014-02-22 14:20:50</b>,-82.39770253358117,34.8537344983406
HYATT-GUEST,BSSID: <b>0c:68:03:cb:ec:e0</b><br/>Capabilities: <b>[ESS]</b><br/>Frequency: <b>2412</b><br/>Timestamp: <b>1393096684999</b><br/>Date: <b>2014-02-22 14:18:04</b>,-82.39788647139126,34.852989873292486
The Lazy Goat,BSSID: <b>00:27:22:8a:10:8c</b><br/>Capabilities: <b>[ESS]</b><br/>Frequency: <b>2422</b><br/>Timestamp: <b>1393097929000</b><br/>Date: <b>2014-02-22 14:38:49</b>,-82.40139875732287,34.84606982353056
Courtyard_Guest,BSSID: <b>c0:25:5c:68:7e:70</b><br/>Capabilities: <b>[ESS]</b><br/>Frequency: <b>2412</b><br/>Timestamp: <b>1393098575000</b><br/>Date: <b>2014-02-22 14:49:35</b>,-82.40016876731725,34.84770293266073
HYATT-GUEST,BSSID: <b>44:ad:d9:5f:79:e0</b><br/>Capabilities: <b>[ESS]</b><br/>Frequency: <b>2412</b><br/>Timestamp: <b>1393096678999</b><br/>Date: <b>2014-02-22 14:17:58</b>,-82.39791667320537,34.852938543785825
FUEL Client,BSSID: <b>0a:27:22:d5:31:78</b><br/>Capabilities: <b>[ESS]</b><br/>Frequency: <b>2412</b><br/>Timestamp: <b>1393098667000</b><br/>Date: <b>2014-02-22 14:51:07</b>,-82.39991270283001,34.84837762864348
,BSSID: <b>84:1b:5e:2c:69:3e</b><br/>Capabilities: <b>[WPS][ESS]</b><br/>Frequency: <b>2412</b><br/>Timestamp: <b>1393097147999</b><br/>Date: <b>2014-02-22 14:25:47</b>,-82.39907795378895,34.85128869876809
public,BSSID: <b>0a:27:22:d5:65:73</b><br/>Capabilities: <b>[ESS]</b><br/>Frequency: <b>2462</b><br/>Timestamp: <b>1393094440000</b><br/>Date: <b>2014-02-22 13:40:40</b>,-82.3973266379015,34.85114590739628
OD-GUEST,BSSID: <b>24:b6:57:43:c8:e4</b><br/>Capabilities: <b>[ESS]</b><br/>Frequency: <b>2462</b><br/>Timestamp: <b>1393096754000</b><br/>Date: <b>2014-02-22 14:19:14</b>,-82.39760466513198,34.85376339774837
OD-TEST,BSSID: <b>24:b6:57:43:c8:e5</b><br/>Capabilities: <b>[ESS]</b><br/>Frequency: <b>2462</b><br/>Timestamp: <b>1393096758000</b><br/>Date: <b>2014-02-22 14:19:18</b>,-82.39760087000529,34.853788774991244
 ,BSSID: <b>00:01:f4:96:2e:7b</b><br/>Capabilities: <b>[ESS]</b><br/>Frequency: <b>2422</b><br/>Timestamp: <b>1393096410000</b><br/>Date: <b>2014-02-22 14:13:30</b>,-82.3968184713598,34.85197905880235
CLEARTALK TERMINAL 1,BSSID: <b>02:30:44:11:a1:7e</b><br/>Capabilities: <b>[ESS]</b><br/>Frequency: <b>2412</b><br/>Timestamp: <b>1393097443000</b><br/>Date: <b>2014-02-22 14:30:43</b>,-82.40051175569836,34.849972645896514
ITS-Wireless,BSSID: <b>00:22:bd:9a:7f:80</b><br/>Capabilities: <b>[ESS]</b><br/>Frequency: <b>2462</b><br/>Timestamp: <b>1393097804999</b><br/>Date: <b>2014-02-22 14:36:44</b>,-82.40087854576448,34.84727713018141
HP-Print-6A-Officejet Pro 8600,BSSID: <b>28:92:4a:c2:41:6a</b><br/>Capabilities: <b>[ESS]</b><br/>Frequency: <b>2462</b><br/>Timestamp: <b>1393098023000</b><br/>Date: <b>2014-02-22 14:40:23</b>,-82.40209465194857,34.84537517853065
HP-Print-5e-LaserJet 200 color,BSSID: <b>70:18:8b:8b:22:5e</b><br/>Capabilities: <b>[ESS]</b><br/>Frequency: <b>2437</b><br/>Timestamp: <b>1393096118999</b><br/>Date: <b>2014-02-22 14:08:38</b>,-82.39856376146062,34.85075273043208
Westin Poinsett Greenville,BSSID: <b>a4:56:30:46:6a:80</b><br/>Capabilities: <b>[ESS]</b><br/>Frequency: <b>2412</b><br/>Timestamp: <b>1393097563000</b><br/>Date: <b>2014-02-22 14:32:43</b>,-82.39976432862393,34.849354917445595
GCI-GUEST,BSSID: <b>6c:f3:7f:1a:92:53</b><br/>Capabilities: <b>[ESS]</b><br/>Frequency: <b>2462</b><br/>Timestamp: <b>1393097807999</b><br/>Date: <b>2014-02-22 14:36:47</b>,-82.40087621263507,34.84726227692683
HP-Print-30-LaserJet 200 color,BSSID: <b>e0:06:e6:31:6c:30</b><br/>Capabilities: <b>[ESS]</b><br/>Frequency: <b>2422</b><br/>Timestamp: <b>1393096548999</b><br/>Date: <b>2014-02-22 14:15:48</b>,-82.39701128356462,34.85222081583248
HYATT-LOBBY,BSSID: <b>0c:68:03:cb:70:61</b><br/>Capabilities: <b>[ESS]</b><br/>Frequency: <b>2462</b><br/>Timestamp: <b>1393096672999</b><br/>Date: <b>2014-02-22 14:17:52</b>,-82.3979467934344,34.852881510337674
HYATT-GUEST,BSSID: <b>0c:68:03:cb:70:60</b><br/>Capabilities: <b>[ESS]</b><br/>Frequency: <b>2462</b><br/>Timestamp: <b>1393096816000</b><br/>Date: <b>2014-02-22 14:20:16</b>,-82.39773189566488,34.8538894632753
wcsrguest,BSSID: <b>00:24:97:88:af:01</b><br/>Capabilities: <b>[ESS]</b><br/>Frequency: <b>2462</b><br/>Timestamp: <b>1393097986000</b><br/>Date: <b>2014-02-22 14:39:46</b>,-82.4018364727777,34.845640193377044
HYATT-GUEST,BSSID: <b>0c:68:03:dd:79:f0</b><br/>Capabilities: <b>[ESS]</b><br/>Frequency: <b>2412</b><br/>Timestamp: <b>1393096696999</b><br/>Date: <b>2014-02-22 14:18:16</b>,-82.39788650660313,34.85308683490529
HYATT-GUEST,BSSID: <b>0c:68:03:dd:7b:50</b><br/>Capabilities: <b>[ESS]</b><br/>Frequency: <b>2437</b><br/>Timestamp: <b>1393096691999</b><br/>Date: <b>2014-02-22 14:18:11</b>,-82.39790646173634,34.85308025586662
turningpoint-guest,BSSID: <b>58:6d:8f:af:be:18</b><br/>Capabilities: <b>[ESS]</b><br/>Frequency: <b>2412</b><br/>Timestamp: <b>1393096436999</b><br/>Date: <b>2014-02-22 14:13:56</b>,-82.39656510401815,34.85185642258229
belkin.c81.guests,BSSID: <b>ec:1a:59:36:9c:82</b><br/>Capabilities: <b>[ESS]</b><br/>Frequency: <b>2412</b><br/>Timestamp: <b>1393097440000</b><br/>Date: <b>2014-02-22 14:30:40</b>,-82.40045658148146,34.85001715363208
HYATT-GUEST,BSSID: <b>0c:68:03:cb:ea:20</b><br/>Capabilities: <b>[ESS]</b><br/>Frequency: <b>2437</b><br/>Timestamp: <b>1393096338000</b><br/>Date: <b>2014-02-22 14:12:18</b>,-82.39768987258839,34.852284404143546
BJJordan-guest,BSSID: <b>26:aa:4b:fa:eb:11</b><br/>Capabilities: <b>[ESS]</b><br/>Frequency: <b>2432</b><br/>Timestamp: <b>1393096590999</b><br/>Date: <b>2014-02-22 14:16:30</b>,-82.39750737003996,34.852378853216955
HYATT-GUEST,BSSID: <b>0c:68:03:cb:ea:50</b><br/>Capabilities: <b>[ESS]</b><br/>Frequency: <b>2412</b><br/>Timestamp: <b>1393096581999</b><br/>Date: <b>2014-02-22 14:16:21</b>,-82.39734655337107,34.85234003783374
RIVERFALLS-guest,BSSID: <b>c0:c1:c0:a8:a4:2f</b><br/>Capabilities: <b>[ESS]</b><br/>Frequency: <b>2462</b><br/>Timestamp: <b>1393097615999</b><br/>Date: <b>2014-02-22 14:33:35</b>,-82.39987657426077,34.84895646704275
RichGiraffe-guest,BSSID: <b>58:6d:8f:af:be:40</b><br/>Capabilities: <b>[ESS]</b><br/>Frequency: <b>2437</b><br/>Timestamp: <b>1393096939000</b><br/>Date: <b>2014-02-22 14:22:19</b>,-82.39783838729241,34.85308522901132
HP-Print-FE-Photosmart 5520,BSSID: <b>a0:b3:cc:d7:ee:fe</b><br/>Capabilities: <b>[ESS]</b><br/>Frequency: <b>2462</b><br/>Timestamp: <b>1393097894000</b><br/>Date: <b>2014-02-22 14:38:14</b>,-82.40099310218595,34.84647093435201
Westin Poinsett Greenville,BSSID: <b>a4:56:30:46:81:10</b><br/>Capabilities: <b>[ESS]</b><br/>Frequency: <b>2462</b><br/>Timestamp: <b>1393097493000</b><br/>Date: <b>2014-02-22 14:31:33</b>,-82.40029141306877,34.84964594005677
LovelaceSearch-guest,BSSID: <b>c0:c1:c0:a9:66:9f</b><br/>Capabilities: <b>[ESS]</b><br/>Frequency: <b>2437</b><br/>Timestamp: <b>1393096647999</b><br/>Date: <b>2014-02-22 14:17:27</b>,-82.3980038857094,34.85259577553717
OD-GUEST,BSSID: <b>d4:d7:48:45:e2:54</b><br/>Capabilities: <b>[ESS]</b><br/>Frequency: <b>2437</b><br/>Timestamp: <b>1393096743000</b><br/>Date: <b>2014-02-22 14:19:03</b>,-82.3976724261744,34.85354858262493
OD-TEST,BSSID: <b>d4:d7:48:45:e2:55</b><br/>Capabilities: <b>[ESS]</b><br/>Frequency: <b>2437</b><br/>Timestamp: <b>1393096784000</b><br/>Date: <b>2014-02-22 14:19:44</b>,-82.39763262632869,34.85394899425103
Nose Dive Public,BSSID: <b>00:15:6d:4c:a7:53</b><br/>Capabilities: <b>[ESS]</b><br/>Frequency: <b>2452</b><br/>Timestamp: <b>1393098645000</b><br/>Date: <b>2014-02-22 14:50:45</b>,-82.39993906730818,34.848212418379454
Westin Poinsett Greenville,BSSID: <b>a4:56:30:15:c0:30</b><br/>Capabilities: <b>[ESS]</b><br/>Frequency: <b>2412</b><br/>Timestamp: <b>0</b><br/>Date: <b>1969-12-31 19:00:00</b>,-82.39712064176818,34.84603000822891
belkin.ae8.guests,BSSID: <b>ee:1a:59:8a:3a:e9</b><br/>Capabilities: <b>[WPS][ESS]</b><br/>Frequency: <b>2437</b><br/>Timestamp: <b>1393097395000</b><br/>Date: <b>2014-02-22 14:29:55</b>,-82.39948041173882,34.84997190892281
C4,BSSID: <b>64:a0:e7:f8:64:63</b><br/>Capabilities: <b>[ESS]</b><br/>Frequency: <b>2412</b><br/>Timestamp: <b>1393096847000</b><br/>Date: <b>2014-02-22 14:20:47</b>,-82.39771304509142,34.85377205922668
Westin Poinsett Greenville,BSSID: <b>a4:56:30:46:61:e0</b><br/>Capabilities: <b>[ESS]</b><br/>Frequency: <b>2437</b><br/>Timestamp: <b>1393098751000</b><br/>Date: <b>2014-02-22 14:52:31</b>,-82.39953322365068,34.849113571338755
HP-Print-38-Officejet Pro 8600,BSSID: <b>a4:5d:36:3a:39:38</b><br/>Capabilities: <b>[ESS]</b><br/>Frequency: <b>2462</b><br/>Timestamp: <b>1393096641999</b><br/>Date: <b>2014-02-22 14:17:21</b>,-82.39802452152539,34.85256252010523
C4,BSSID: <b>64:a0:e7:db:f4:d3</b><br/>Capabilities: <b>[ESS]</b><br/>Frequency: <b>2412</b><br/>Timestamp: <b>1393096764000</b><br/>Date: <b>2014-02-22 14:19:24</b>,-82.39759372670164,34.8538260666186
HYATT-GUEST,BSSID: <b>0c:68:03:cb:f0:00</b><br/>Capabilities: <b>[ESS]</b><br/>Frequency: <b>2462</b><br/>Timestamp: <b>1393096356000</b><br/>Date: <b>2014-02-22 14:12:36</b>,-82.39753422365077,34.85220644163455
HYATT-GUEST,BSSID: <b>0c:27:24:77:dd:b0</b><br/>Capabilities: <b>[ESS]</b><br/>Frequency: <b>2462</b><br/>Timestamp: <b>1393096434999</b><br/>Date: <b>2014-02-22 14:13:54</b>,-82.39656510401481,34.85185642257947
HP-Print-CC-Officejet Pro 8600,BSSID: <b>a4:5d:36:3b:54:cc</b><br/>Capabilities: <b>[ESS]</b><br/>Frequency: <b>2437</b><br/>Timestamp: <b>1393096860000</b><br/>Date: <b>2014-02-22 14:21:00</b>,-82.39770250126739,34.853734366690425
belkin.99b.guests,BSSID: <b>ec:1a:59:01:a9:9c</b><br/>Capabilities: <b>[ESS]</b><br/>Frequency: <b>2462</b><br/>Timestamp: <b>1393098335999</b><br/>Date: <b>2014-02-22 14:45:35</b>,-82.40127551083492,34.84583833982603
GraceGuest,BSSID: <b>0a:27:22:cf:72:6c</b><br/>Capabilities: <b>[ESS]</b><br/>Frequency: <b>2412</b><br/>Timestamp: <b>1393097440000</b><br/>Date: <b>2014-02-22 14:30:40</b>,-82.40045658148146,34.85001715363208
Westin Poinsett Greenville,BSSID: <b>a4:56:30:46:5e:00</b><br/>Capabilities: <b>[ESS]</b><br/>Frequency: <b>2462</b><br/>Timestamp: <b>1393098663000</b><br/>Date: <b>2014-02-22 14:51:03</b>,-82.39993700324219,34.84830970665826
HYATT-GUEST,BSSID: <b>0c:68:03:dd:7c:30</b><br/>Capabilities: <b>[ESS]</b><br/>Frequency: <b>2462</b><br/>Timestamp: <b>1393096693999</b><br/>Date: <b>2014-02-22 14:18:13</b>,-82.39790642376343,34.85308028379395
Genova-guest,BSSID: <b>58:6d:8f:bb:31:72</b><br/>Capabilities: <b>[ESS]</b><br/>Frequency: <b>2462</b><br/>Timestamp: <b>1393096842000</b><br/>Date: <b>2014-02-22 14:20:42</b>,-82.39771304509142,34.85377205922668
Westin Poinsett Greenville,BSSID: <b>a4:56:30:46:5e:70</b><br/>Capabilities: <b>[ESS]</b><br/>Frequency: <b>2412</b><br/>Timestamp: <b>1393097552000</b><br/>Date: <b>2014-02-22 14:32:32</b>,-82.39969908732134,34.84945389032038
SchwabOne,BSSID: <b>24:de:c6:68:94:b0</b><br/>Capabilities: <b>[ESS]</b><br/>Frequency: <b>2412</b><br/>Timestamp: <b>1393096111320</b><br/>Date: <b>2014-02-22 14:08:31</b>,-82.39809709631218,34.8502629586796
Westin Poinsett Greenville,BSSID: <b>2c:36:f8:b9:ec:d0</b><br/>Capabilities: <b>[ESS]</b><br/>Frequency: <b>2437</b><br/>Timestamp: <b>1393098669000</b><br/>Date: <b>2014-02-22 14:51:09</b>,-82.3998859452684,34.84845334742409
Spill the Beans,BSSID: <b>96:84:0d:d7:8a:e7</b><br/>Capabilities: <b>[ESS]</b><br/>Frequency: <b>2462</b><br/>Timestamp: <b>1393098054000</b><br/>Date: <b>2014-02-22 14:40:54</b>,-82.40224820383301,34.84517579400706
HP-Print-A3-LaserJet M1217,BSSID: <b>e0:06:e6:2c:57:a3</b><br/>Capabilities: <b>[ESS]</b><br/>Frequency: <b>2437</b><br/>Timestamp: <b>1393097019999</b><br/>Date: <b>2014-02-22 14:23:39</b>,-82.39828422341054,34.851971633140884
SRHSWIFI,BSSID: <b>0c:85:25:7f:7c:92</b><br/>Capabilities: <b>[ESS]</b><br/>Frequency: <b>2412</b><br/>Timestamp: <b>1393098271999</b><br/>Date: <b>2014-02-22 14:44:31</b>,-82.40180495933853,34.845248269926664
OD-TEST,BSSID: <b>5c:50:15:36:63:35</b><br/>Capabilities: <b>[ESS]</b><br/>Frequency: <b>2412</b><br/>Timestamp: <b>1393096766000</b><br/>Date: <b>2014-02-22 14:19:26</b>,-82.39760751790885,34.85385338640401
OD-GUEST,BSSID: <b>5c:50:15:36:63:34</b><br/>Capabilities: <b>[ESS]</b><br/>Frequency: <b>2412</b><br/>Timestamp: <b>1393096766000</b><br/>Date: <b>2014-02-22 14:19:26</b>,-82.39760751790885,34.85385338640401
Westin Poinsett Greenville,BSSID: <b>a4:56:30:15:a8:e0</b><br/>Capabilities: <b>[ESS]</b><br/>Frequency: <b>2412</b><br/>Timestamp: <b>1393097503000</b><br/>Date: <b>2014-02-22 14:31:43</b>,-82.40019132739828,34.849556897683236
BSUMCGuest,BSSID: <b>48:f8:b3:30:cb:39</b><br/>Capabilities: <b>[ESS]</b><br/>Frequency: <b>2437</b><br/>Timestamp: <b>1393094458000</b><br/>Date: <b>2014-02-22 13:40:58</b>,-82.39755317095556,34.85125493445486
HYATT-GUEST,BSSID: <b>0c:68:03:cb:e8:50</b><br/>Capabilities: <b>[ESS]</b><br/>Frequency: <b>2462</b><br/>Timestamp: <b>1393096875000</b><br/>Date: <b>2014-02-22 14:21:15</b>,-82.39773331407767,34.853686542758005
City Of Greenville Guest,BSSID: <b>06:27:22:59:4d:8b</b><br/>Capabilities: <b>[ESS]</b><br/>Frequency: <b>2462</b><br/>Timestamp: <b>1393098694000</b><br/>Date: <b>2014-02-22 14:51:34</b>,-82.3998214117596,34.848534239963726
HYATT-GUEST,BSSID: <b>0c:68:03:cb:eb:90</b><br/>Capabilities: <b>[ESS]</b><br/>Frequency: <b>2462</b><br/>Timestamp: <b>1393096684999</b><br/>Date: <b>2014-02-22 14:18:04</b>,-82.39788647139126,34.852989873292486
Michelin on Main,BSSID: <b>c4:3d:c7:63:a2:70</b><br/>Capabilities: <b>[WPS][ESS]</b><br/>Frequency: <b>2412</b><br/>Timestamp: <b>1393097978000</b><br/>Date: <b>2014-02-22 14:39:38</b>,-82.40179723706586,34.84569568259096
Westin Poinsett Greenville,BSSID: <b>a4:56:30:15:cd:f0</b><br/>Capabilities: <b>[ESS]</b><br/>Frequency: <b>2412</b><br/>Timestamp: <b>1393097410000</b><br/>Date: <b>2014-02-22 14:30:10</b>,-82.39979362204497,34.85005447561402
GraphicCow2.4ghz-guest,BSSID: <b>ca:d7:19:52:d6:a2</b><br/>Capabilities: <b>[ESS]</b><br/>Frequency: <b>2422</b><br/>Timestamp: <b>1393096321000</b><br/>Date: <b>2014-02-22 14:12:01</b>,-82.39803988812167,34.85239640832605
ch3,BSSID: <b>00:17:0f:e7:fe:60</b><br/>Capabilities: <b>[ESS]</b><br/>Frequency: <b>2422</b><br/>Timestamp: <b>1393094353000</b><br/>Date: <b>2014-02-22 13:39:13</b>,-82.39740177950074,34.850435614882734
Elite Fitness,BSSID: <b>ec:1a:59:8a:3a:e8</b><br/>Capabilities: <b>[WPS][ESS]</b><br/>Frequency: <b>2437</b><br/>Timestamp: <b>1393097389000</b><br/>Date: <b>2014-02-22 14:29:49</b>,-82.39948041173862,34.849971908922775
HP-Print-59-LaserJet 1102,BSSID: <b>68:94:23:24:06:59</b><br/>Capabilities: <b>[ESS]</b><br/>Frequency: <b>2437</b><br/>Timestamp: <b>1393096645999</b><br/>Date: <b>2014-02-22 14:17:25</b>,-82.39801042906998,34.85258895781707
PalmettoLegal-guest,BSSID: <b>c0:c1:c0:a7:46:e7</b><br/>Capabilities: <b>[ESS]</b><br/>Frequency: <b>2437</b><br/>Timestamp: <b>1393094392000</b><br/>Date: <b>2014-02-22 13:39:52</b>,-82.39744186192105,34.850760814605515
Westin Poinsett Greenville,BSSID: <b>a4:56:30:46:74:a0</b><br/>Capabilities: <b>[ESS]</b><br/>Frequency: <b>2437</b><br/>Timestamp: <b>1393098724000</b><br/>Date: <b>2014-02-22 14:52:04</b>,-82.39975208496911,34.84867182223864
RPUS@GUEST,BSSID: <b>c8:f9:f9:1a:c4:b2</b><br/>Capabilities: <b>[ESS]</b><br/>Frequency: <b>2462</b><br/>Timestamp: <b>1393096939000</b><br/>Date: <b>2014-02-22 14:22:19</b>,-82.39783838729241,34.85308522901132
HYATT-GUEST,BSSID: <b>0c:68:03:dd:7c:10</b><br/>Capabilities: <b>[ESS]</b><br/>Frequency: <b>2437</b><br/>Timestamp: <b>1393096341000</b><br/>Date: <b>2014-02-22 14:12:21</b>,-82.39768987258839,34.852284404143546
RCAP-GVL-GUEST,BSSID: <b>6c:f3:7f:15:f7:41</b><br/>Capabilities: <b>[ESS]</b><br/>Frequency: <b>2462</b><br/>Timestamp: <b>1393096563999</b><br/>Date: <b>2014-02-22 14:16:03</b>,-82.39721157109707,34.85223994299068
wcsrguest,BSSID: <b>00:24:97:88:b9:61</b><br/>Capabilities: <b>[ESS]</b><br/>Frequency: <b>2412</b><br/>Timestamp: <b>1393097982000</b><br/>Date: <b>2014-02-22 14:39:42</b>,-82.40181665817519,34.84567012890766
HP-Print-DE-Officejet Pro 8600,BSSID: <b>00:9c:02:d1:a4:de</b><br/>Capabilities: <b>[ESS]</b><br/>Frequency: <b>2412</b><br/>Timestamp: <b>1393098814999</b><br/>Date: <b>2014-02-22 14:53:34</b>,-82.39936925382723,34.849438945231356
Westin Poinsett Greenville,BSSID: <b>a4:56:30:15:c1:60</b><br/>Capabilities: <b>[ESS]</b><br/>Frequency: <b>2462</b><br/>Timestamp: <b>1393098715000</b><br/>Date: <b>2014-02-22 14:51:55</b>,-82.39977142452821,34.84861396716549
GCI-GUEST,BSSID: <b>24:de:c6:bd:c1:a3</b><br/>Capabilities: <b>[ESS]</b><br/>Frequency: <b>2412</b><br/>Timestamp: <b>1393098508000</b><br/>Date: <b>2014-02-22 14:48:28</b>,-82.40033109716416,34.84741915823431
AndroidAP bun,BSSID: <b>84:25:db:d3:a0:0d</b><br/>Capabilities: <b>[ESS]</b><br/>Frequency: <b>2437</b><br/>Timestamp: <b>1393098694000</b><br/>Date: <b>2014-02-22 14:51:34</b>,-82.3998214117596,34.848534239963726
EASC-Group-guest,BSSID: <b>68:7f:74:97:5c:e1</b><br/>Capabilities: <b>[ESS]</b><br/>Frequency: <b>2462</b><br/>Timestamp: <b>1393097440000</b><br/>Date: <b>2014-02-22 14:30:40</b>,-82.40045658148146,34.85001715363208
HYATT-LOBBY,BSSID: <b>0c:27:24:77:b9:11</b><br/>Capabilities: <b>[ESS]</b><br/>Frequency: <b>2412</b><br/>Timestamp: <b>1393096690999</b><br/>Date: <b>2014-02-22 14:18:10</b>,-82.39790630280183,34.85306923547729
,BSSID: <b>f4:1f:c2:d0:02:b2</b><br/>Capabilities: <b>[ESS]</b><br/>Frequency: <b>2462</b><br/>Timestamp: <b>1393096762000</b><br/>Date: <b>2014-02-22 14:19:22</b>,-82.39759160276829,34.85380890837246
veranda on main1,BSSID: <b>c8:d7:19:8e:06:5a</b><br/>Capabilities: <b>[WPS][ESS]</b><br/>Frequency: <b>2462</b><br/>Timestamp: <b>1393097663999</b><br/>Date: <b>2014-02-22 14:34:23</b>,-82.40016760369106,34.848580292282584
HP-Print-9A-Officejet Pro 8600,BSSID: <b>2c:76:8a:bf:2e:9a</b><br/>Capabilities: <b>[ESS]</b><br/>Frequency: <b>2437</b><br/>Timestamp: <b>1393096392000</b><br/>Date: <b>2014-02-22 14:13:12</b>,-82.39713222946858,34.85211329916593
wcsrguest,BSSID: <b>00:24:97:88:dd:11</b><br/>Capabilities: <b>[ESS]</b><br/>Frequency: <b>2412</b><br/>Timestamp: <b>1393097964000</b><br/>Date: <b>2014-02-22 14:39:24</b>,-82.40171483226618,34.8457962485272
HP-Print-BF-LaserJet M1217,BSSID: <b>e0:06:e6:4f:80:bf</b><br/>Capabilities: <b>[ESS]</b><br/>Frequency: <b>2442</b><br/>Timestamp: <b>1393097696999</b><br/>Date: <b>2014-02-22 14:34:56</b>,-82.40031272840967,34.848376774917114
overstreet-guest,BSSID: <b>58:6d:8f:9f:71:4e</b><br/>Capabilities: <b>[ESS]</b><br/>Frequency: <b>2412</b><br/>Timestamp: <b>1393094509000</b><br/>Date: <b>2014-02-22 13:41:49</b>,-82.39805942511546,34.85146733710325
REGUSNETWIFI,BSSID: <b>00:22:55:57:d2:90</b><br/>Capabilities: <b>[ESS]</b><br/>Frequency: <b>2412</b><br/>Timestamp: <b>1393096766000</b><br/>Date: <b>2014-02-22 14:19:26</b>,-82.39760751790885,34.85385338640401
Westin Poinsett Greenville,BSSID: <b>a4:56:30:15:a9:d0</b><br/>Capabilities: <b>[ESS]</b><br/>Frequency: <b>2412</b><br/>Timestamp: <b>1393097378000</b><br/>Date: <b>2014-02-22 14:29:38</b>,-82.39929774750728,34.849982592918266
SobysPublic,BSSID: <b>00:15:6d:72:02:57</b><br/>Capabilities: <b>[ESS]</b><br/>Frequency: <b>2462</b><br/>Timestamp: <b>1393098770000</b><br/>Date: <b>2014-02-22 14:52:50</b>,-82.39942166068236,34.849321940470205
wirelessdowntown,BSSID: <b>00:60:b3:4f:f6:61</b><br/>Capabilities: <b>[ESS]</b><br/>Frequency: <b>2462</b><br/>Timestamp: <b>1393098934999</b><br/>Date: <b>2014-02-22 14:55:34</b>,-82.39952988004818,34.84971938413709
Westin Poinsett Greenville,BSSID: <b>a4:56:30:15:a6:20</b><br/>Capabilities: <b>[ESS]</b><br/>Frequency: <b>2462</b><br/>Timestamp: <b>1393097566000</b><br/>Date: <b>2014-02-22 14:32:46</b>,-82.3997795690664,34.84933575382748
HYATT-GUEST,BSSID: <b>44:ad:d9:e4:0f:c0</b><br/>Capabilities: <b>[ESS]</b><br/>Frequency: <b>2462</b><br/>Timestamp: <b>1393096702999</b><br/>Date: <b>2014-02-22 14:18:22</b>,-82.39788637777362,34.853086827377155
Sully's Steamers-guest,BSSID: <b>ca:d7:19:9b:8a:3d</b><br/>Capabilities: <b>[ESS]</b><br/>Frequency: <b>2412</b><br/>Timestamp: <b>1393099030999</b><br/>Date: <b>2014-02-22 14:57:10</b>,-82.39901609664062,34.85036085947392
Westin Poinsett Greenville,BSSID: <b>2c:36:f8:b9:de:20</b><br/>Capabilities: <b>[ESS]</b><br/>Frequency: <b>2412</b><br/>Timestamp: <b>1393098936999</b><br/>Date: <b>2014-02-22 14:55:36</b>,-82.39952679002123,34.84973312842663
SJM-Guest,BSSID: <b>a4:0c:c3:97:79:41</b><br/>Capabilities: <b>[ESS]</b><br/>Frequency: <b>2412</b><br/>Timestamp: <b>1393097660999</b><br/>Date: <b>2014-02-22 14:34:20</b>,-82.40016760369106,34.848580292282584
Airlink101,BSSID: <b>00:21:2f:39:a7:e8</b><br/>Capabilities: <b>[ESS]</b><br/>Frequency: <b>2437</b><br/>Timestamp: <b>1393098462999</b><br/>Date: <b>2014-02-22 14:47:42</b>,-82.40057803443763,34.84680867180929
Westin Poinsett Greenville,BSSID: <b>a4:56:30:46:79:e0</b><br/>Capabilities: <b>[ESS]</b><br/>Frequency: <b>2437</b><br/>Timestamp: <b>1393097508000</b><br/>Date: <b>2014-02-22 14:31:48</b>,-82.4001467163715,34.84954527250392
GCI-GUEST,BSSID: <b>6c:f3:7f:1a:87:43</b><br/>Capabilities: <b>[ESS]</b><br/>Frequency: <b>2437</b><br/>Timestamp: <b>1393098454999</b><br/>Date: <b>2014-02-22 14:47:34</b>,-82.40062066474835,34.84672782441284
FUEL Client,BSSID: <b>c6:9f:db:83:3b:0d</b><br/>Capabilities: <b>[ESS]</b><br/>Frequency: <b>2437</b><br/>Timestamp: <b>1393098669000</b><br/>Date: <b>2014-02-22 14:51:09</b>,-82.3998859452684,34.84845334742409
HYATT-GUEST,BSSID: <b>44:ad:d9:71:bf:60</b><br/>Capabilities: <b>[ESS]</b><br/>Frequency: <b>2412</b><br/>Timestamp: <b>1393096356000</b><br/>Date: <b>2014-02-22 14:12:36</b>,-82.39753422365077,34.85220644163455
Westin Poinsett Greenville,BSSID: <b>a4:56:30:15:9f:10</b><br/>Capabilities: <b>[ESS]</b><br/>Frequency: <b>2462</b><br/>Timestamp: <b>1393097569000</b><br/>Date: <b>2014-02-22 14:32:49</b>,-82.39979181137882,34.84932450307048
Westin Poinsett Greenville,BSSID: <b>a4:56:30:15:c0:d0</b><br/>Capabilities: <b>[ESS]</b><br/>Frequency: <b>2462</b><br/>Timestamp: <b>1393098943999</b><br/>Date: <b>2014-02-22 14:55:43</b>,-82.39951002608922,34.849777522704805
bcenter,BSSID: <b>d8:c7:c8:1f:50:81</b><br/>Capabilities: <b>[ESS]</b><br/>Frequency: <b>2462</b><br/>Timestamp: <b>1393096513999</b><br/>Date: <b>2014-02-22 14:15:13</b>,-82.3965391362175,34.85212435968351
HYATT-LOBBY,BSSID: <b>0c:68:03:cb:f1:41</b><br/>Capabilities: <b>[ESS]</b><br/>Frequency: <b>2412</b><br/>Timestamp: <b>1393096691999</b><br/>Date: <b>2014-02-22 14:18:11</b>,-82.39790646173634,34.85308025586662
HYATT-GUEST,BSSID: <b>0c:68:03:cb:f1:40</b><br/>Capabilities: <b>[ESS]</b><br/>Frequency: <b>2412</b><br/>Timestamp: <b>1393096693999</b><br/>Date: <b>2014-02-22 14:18:13</b>,-82.39790642376343,34.85308028379395
HYATT-GUEST,BSSID: <b>0c:68:03:cb:95:f0</b><br/>Capabilities: <b>[ESS]</b><br/>Frequency: <b>2437</b><br/>Timestamp: <b>1393096563999</b><br/>Date: <b>2014-02-22 14:16:03</b>,-82.39721157109707,34.85223994299068
,BSSID: <b>18:33:9d:6c:7f:f2</b><br/>Capabilities: <b>[ESS]</b><br/>Frequency: <b>2412</b><br/>Timestamp: <b>1393097201999</b><br/>Date: <b>2014-02-22 14:26:41</b>,-82.40001136089299,34.85098410352919
HYATT-GUEST,BSSID: <b>34:a8:4e:43:6f:e0</b><br/>Capabilities: <b>[ESS]</b><br/>Frequency: <b>2437</b><br/>Timestamp: <b>1393096507999</b><br/>Date: <b>2014-02-22 14:15:07</b>,-82.39642791586243,34.85203892744987
Coffee UnderGround Guest,BSSID: <b>00:15:6d:7a:6c:9b</b><br/>Capabilities: <b>[ESS]</b><br/>Frequency: <b>2427</b><br/>Timestamp: <b>1393096207000</b><br/>Date: <b>2014-02-22 14:10:07</b>,-82.39904636829807,34.85105669434842
linksys,BSSID: <b>00:23:69:c9:0b:24</b><br/>Capabilities: <b>[WPS][ESS]</b><br/>Frequency: <b>2437</b><br/>Timestamp: <b>1393098002000</b><br/>Date: <b>2014-02-22 14:40:02</b>,-82.40196666395234,34.84553234862496
HYATT-GUEST,BSSID: <b>0c:68:03:dd:76:c0</b><br/>Capabilities: <b>[ESS]</b><br/>Frequency: <b>2462</b><br/>Timestamp: <b>1393096571999</b><br/>Date: <b>2014-02-22 14:16:11</b>,-82.39724873482687,34.85228222633881
NetCamE148,BSSID: <b>ec:1a:59:d8:e1:48</b><br/>Capabilities: <b>[ESS]</b><br/>Frequency: <b>2412</b><br/>Timestamp: <b>1393096374000</b><br/>Date: <b>2014-02-22 14:12:54</b>,-82.39725630140899,34.85214229352197
Westin Poinsett Greenville,BSSID: <b>a4:56:30:15:c1:30</b><br/>Capabilities: <b>[ESS]</b><br/>Frequency: <b>2437</b><br/>Timestamp: <b>1393098731000</b><br/>Date: <b>2014-02-22 14:52:11</b>,-82.39965090643625,34.84889863588733
HYATT-LOBBY,BSSID: <b>0c:27:24:e6:a2:23</b><br/>Capabilities: <b>[ESS]</b><br/>Frequency: <b>2462</b><br/>Timestamp: <b>1393096718999</b><br/>Date: <b>2014-02-22 14:18:38</b>,-82.39771654621029,34.85322172442215
HYATT-MEETING,BSSID: <b>0c:27:24:e6:a2:22</b><br/>Capabilities: <b>[ESS]</b><br/>Frequency: <b>2462</b><br/>Timestamp: <b>1393096718999</b><br/>Date: <b>2014-02-22 14:18:38</b>,-82.39771654621029,34.85322172442215
HYATT-GUEST,BSSID: <b>0c:27:24:e6:a2:20</b><br/>Capabilities: <b>[ESS]</b><br/>Frequency: <b>2462</b><br/>Timestamp: <b>1393096718999</b><br/>Date: <b>2014-02-22 14:18:38</b>,-82.39771654621029,34.85322172442215
HYATT-GUEST,BSSID: <b>0c:68:03:cb:c2:d0</b><br/>Capabilities: <b>[ESS]</b><br/>Frequency: <b>2462</b><br/>Timestamp: <b>1393096380000</b><br/>Date: <b>2014-02-22 14:13:00</b>,-82.39725630140899,34.85214229352197
cbh-public,BSSID: <b>00:26:cb:ab:37:92</b><br/>Capabilities: <b>[ESS]</b><br/>Frequency: <b>2412</b><br/>Timestamp: <b>1393097448000</b><br/>Date: <b>2014-02-22 14:30:48</b>,-82.40051592866162,34.84996710272504
guadalajaraonmain,BSSID: <b>00:25:9c:1a:1e:28</b><br/>Capabilities: <b>[WPS][ESS]</b><br/>Frequency: <b>2412</b><br/>Timestamp: <b>1393096998000</b><br/>Date: <b>2014-02-22 14:23:18</b>,-82.39819351004421,34.852229195941135
HYATT-GUEST,BSSID: <b>0c:27:24:77:76:50</b><br/>Capabilities: <b>[ESS]</b><br/>Frequency: <b>2462</b><br/>Timestamp: <b>1393096568999</b><br/>Date: <b>2014-02-22 14:16:08</b>,-82.39723798808627,34.852248215266016
REGUSNETWIFI,BSSID: <b>00:1c:0f:4c:4b:50</b><br/>Capabilities: <b>[ESS]</b><br/>Frequency: <b>2462</b><br/>Timestamp: <b>1393096667999</b><br/>Date: <b>2014-02-22 14:17:47</b>,-82.39796665947506,34.85282684970111
Courtyard_Guest,BSSID: <b>e8:ed:f3:d1:db:c1</b><br/>Capabilities: <b>[ESS]</b><br/>Frequency: <b>2462</b><br/>Timestamp: <b>1393097684999</b><br/>Date: <b>2014-02-22 14:34:44</b>,-82.40020891774324,34.84847350140533
Courtyard_Conf,BSSID: <b>e8:ed:f3:d1:db:c0</b><br/>Capabilities: <b>[ESS]</b><br/>Frequency: <b>2462</b><br/>Timestamp: <b>1393097684999</b><br/>Date: <b>2014-02-22 14:34:44</b>,-82.40020891774324,34.84847350140533
HP-Print-D1-Officejet Pro 8600,BSSID: <b>ec:9a:74:9f:d1:d1</b><br/>Capabilities: <b>[ESS]</b><br/>Frequency: <b>2452</b><br/>Timestamp: <b>1393099050999</b><br/>Date: <b>2014-02-22 14:57:30</b>,-82.39893109589211,34.850329064324846
linksys,BSSID: <b>00:16:b6:18:93:a8</b><br/>Capabilities: <b>[ESS]</b><br/>Frequency: <b>2437</b><br/>Timestamp: <b>1393096743000</b><br/>Date: <b>2014-02-22 14:19:03</b>,-82.3976724261744,34.85354858262493
HYATT-GUEST,BSSID: <b>44:ad:d9:71:8b:00</b><br/>Capabilities: <b>[ESS]</b><br/>Frequency: <b>2412</b><br/>Timestamp: <b>1393096688999</b><br/>Date: <b>2014-02-22 14:18:08</b>,-82.39790837408721,34.85306760596896
Carolina Ale Wifi,BSSID: <b>58:6d:8f:2e:79:e9</b><br/>Capabilities: <b>[WPS][ESS]</b><br/>Frequency: <b>2412</b><br/>Timestamp: <b>1393097589000</b><br/>Date: <b>2014-02-22 14:33:09</b>,-82.39978916924713,34.84924589725073
,BSSID: <b>0c:85:25:33:d1:d1</b><br/>Capabilities: <b>[ESS]</b><br/>Frequency: <b>2462</b><br/>Timestamp: <b>1393098021000</b><br/>Date: <b>2014-02-22 14:40:21</b>,-82.40207345084362,34.84540807788869
Courtyard_Guest,BSSID: <b>7c:95:f3:cc:ac:b0</b><br/>Capabilities: <b>[ESS]</b><br/>Frequency: <b>2462</b><br/>Timestamp: <b>1393097798999</b><br/>Date: <b>2014-02-22 14:36:38</b>,-82.40087564373397,34.847326623829495
BrightPenguin-guest,BSSID: <b>c0:c1:c0:bb:cf:29</b><br/>Capabilities: <b>[ESS]</b><br/>Frequency: <b>2437</b><br/>Timestamp: <b>1393097978000</b><br/>Date: <b>2014-02-22 14:39:38</b>,-82.40179723706586,34.84569568259096
Westin Poinsett Greenville,BSSID: <b>2c:36:f8:60:fb:b0</b><br/>Capabilities: <b>[ESS]</b><br/>Frequency: <b>2462</b><br/>Timestamp: <b>1393097552000</b><br/>Date: <b>2014-02-22 14:32:32</b>,-82.39969908732134,34.84945389032038
Michelin on Main Free,BSSID: <b>c6:3d:c7:63:a2:71</b><br/>Capabilities: <b>[ESS]</b><br/>Frequency: <b>2412</b><br/>Timestamp: <b>1393097978000</b><br/>Date: <b>2014-02-22 14:39:38</b>,-82.40179723706586,34.84569568259096
,BSSID: <b>ec:e1:a9:8a:47:10</b><br/>Capabilities: <b>[ESS]</b><br/>Frequency: <b>2462</b><br/>Timestamp: <b>1393097069999</b><br/>Date: <b>2014-02-22 14:24:29</b>,-82.398640205327,34.851522636682475
,BSSID: <b>0c:85:25:33:c5:01</b><br/>Capabilities: <b>[ESS]</b><br/>Frequency: <b>2437</b><br/>Timestamp: <b>1393098015000</b><br/>Date: <b>2014-02-22 14:40:15</b>,-82.40203315755019,34.84548361571269
linksys,BSSID: <b>00:18:f8:bc:70:4d</b><br/>Capabilities: <b>[ESS]</b><br/>Frequency: <b>2437</b><br/>Timestamp: <b>1393097941000</b><br/>Date: <b>2014-02-22 14:39:01</b>,-82.4015088649957,34.845965692611266
Cisco_Extender_05895,BSSID: <b>58:6d:8f:f0:95:1b</b><br/>Capabilities: <b>[WPS][ESS]</b><br/>Frequency: <b>2462</b><br/>Timestamp: <b>1393096973000</b><br/>Date: <b>2014-02-22 14:22:53</b>,-82.39816529000194,34.85237205588543
HP-Print-FE-Photosmart 6520,BSSID: <b>ec:9a:74:37:37:fe</b><br/>Capabilities: <b>[ESS]</b><br/>Frequency: <b>2437</b><br/>Timestamp: <b>1393097316000</b><br/>Date: <b>2014-02-22 14:28:36</b>,-82.3989961907352,34.85039594224433
belkin.baa.guests,BSSID: <b>ec:1a:59:20:db:ad</b><br/>Capabilities: <b>[ESS]</b><br/>Frequency: <b>2412</b><br/>Timestamp: <b>1393094822999</b><br/>Date: <b>2014-02-22 13:47:02</b>,-82.39907007987362,34.85086500425034
Landmark_public,BSSID: <b>dc:9f:db:1c:00:de</b><br/>Capabilities: <b>[ESS]</b><br/>Frequency: <b>2462</b><br/>Timestamp: <b>1393096747000</b><br/>Date: <b>2014-02-22 14:19:07</b>,-82.39764354533244,34.853615070804445
FancyPine-guest,BSSID: <b>68:7f:74:9f:48:68</b><br/>Capabilities: <b>[ESS]</b><br/>Frequency: <b>2412</b><br/>Timestamp: <b>1393098037000</b><br/>Date: <b>2014-02-22 14:40:37</b>,-82.4021411760471,34.84527360483843
HYATT-GUEST,BSSID: <b>34:a8:4e:43:a4:00</b><br/>Capabilities: <b>[ESS]</b><br/>Frequency: <b>2412</b><br/>Timestamp: <b>1393096365000</b><br/>Date: <b>2014-02-22 14:12:45</b>,-82.39753422365077,34.85220644163455
ANTHRO_GUEST_WIFI,BSSID: <b>b4:c7:99:09:a8:62</b><br/>Capabilities: <b>[ESS]</b><br/>Frequency: <b>2437</b><br/>Timestamp: <b>1393094525000</b><br/>Date: <b>2014-02-22 13:42:05</b>,-82.39822770320963,34.851547879108665
,BSSID: <b>00:27:22:e9:63:a0</b><br/>Capabilities: <b>[ESS]</b><br/>Frequency: <b>2437</b><br/>Timestamp: <b>1393096685999</b><br/>Date: <b>2014-02-22 14:18:05</b>,-82.39789825704874,34.85301320147451
,BSSID: <b>00:0f:66:ec:7c:d8</b><br/>Capabilities: <b>[ESS]</b><br/>Frequency: <b>2462</b><br/>Timestamp: <b>1393096737000</b><br/>Date: <b>2014-02-22 14:18:57</b>,-82.39770206328596,34.853373420111346
Courtyard_Guest,BSSID: <b>50:17:ff:9e:5d:d0</b><br/>Capabilities: <b>[ESS]</b><br/>Frequency: <b>2437</b><br/>Timestamp: <b>1393097687999</b><br/>Date: <b>2014-02-22 14:34:47</b>,-82.40023760941342,34.84845002864169
studio104-guest,BSSID: <b>c8:b3:73:16:f9:31</b><br/>Capabilities: <b>[ESS]</b><br/>Frequency: <b>2462</b><br/>Timestamp: <b>1393097912000</b><br/>Date: <b>2014-02-22 14:38:32</b>,-82.4012283272122,34.846209888031524
Westin Poinsett Greenville,BSSID: <b>a4:56:30:15:bd:f0</b><br/>Capabilities: <b>[ESS]</b><br/>Frequency: <b>2462</b><br/>Timestamp: <b>1393097611999</b><br/>Date: <b>2014-02-22 14:33:31</b>,-82.3997586317354,34.84913713510101